stop_id,stop_name,stop_lat,stop_lon
266685,str. Nicolae Milescu Spataru,47.0434646,28.8980674
268896,str. Arborilor,47.00360092553422,28.83797407150269
266684,str. Nicolae Milescu Spataru,47.0434316,28.8977905
266722,str. Socoleni,47.0617195,28.8545947
266357,Spitalul Clinic De Psihiatrie,46.9580412,28.8322195
266551,str. Calea Orheiului,47.046181,28.8488458
266161,Cotitura spre Cricova,47.1181265,28.8679086
266541,str. București,47.0135771,28.8381889
266343,Policlinica Oncologică,46.9895907,28.826291
266467,Spitalul pentru copii nr.3,46.9857591,28.8320468
266571,str. Costiujeni,46.9817325,28.8370757
266516,str. Tighina,47.0155197,28.8409445
266116,"I. Inculeț, 85",47.0062253,28.8381068
266122,Institutul Viticultura,46.9758155,28.8358484
266125,str. Costiujeni 56,46.9645097,28.8344174
266750,str. Vasile Badiu,47.0516229,28.850732
266889,str. Nucarilor,47.1299739,28.8652184
266127,str. Chisinaului,47.1340747,28.8665801
266881,Vasile Alexandri,47.1362233,28.8672086
266361,str. 31 august,47.139434,28.8657907
266195,Miorița,47.1379974,28.8593916
266362,str. 31 august 1989,47.1394678,28.8654924
266880,Vasile Alexandri,47.1364654,28.8670754
266358,Spitalul Clinic De Psihiatrie,46.9576767,28.8316278
268897,Dispenserul Dermato- Vemerologic,46.95327226291375,28.832116127014164
266124,Str. Costiujeni 56,46.964606,28.8346163
266123,Institutul de Pomicultuva,46.9757688,28.8360078
266569,str. Grenoble,46.9827898,28.8369193
266466,Spitalul pentru copii nr.3,46.9861614,28.8318
266464,Institutul oncologic,46.9908359,28.8272551
266593,str. Gheorghe Cașu,47.0015703,28.8379869
268899,str. Arborilor,47.004028942312964,28.83799016475678
266117,"I. Inculeț, 85",47.0061298,28.8382357
268900,Pan Halipa,47.010649961587454,28.838371038436893
265815,bd. Cuza Vodă 15,46.9815371,28.8600081
266616,str. Independenţei,46.9787855,28.8557751
266631,str. Ion Dumeniuc,47.0558309,28.8974471
265990,"Cuza Vodă, 24",46.9799438,28.8571927
266617,str. Independenţei,46.9778163,28.8539949
266757,str. Zelinski,46.9927094,28.8595954
267485,str. Nicolae Sulac,47.06127908795146,28.897701501846317
266657,str. Mihail Sadoveanu,47.0381312,28.8845789
265814,bd. Cuza Vodă,46.9823073,28.8608146
266525,str. Alecu Russo,47.0441294,28.8626332
266679,str. Nicolae Dimo,47.0431908,28.8673308
266698,str. Petru Zadnipru,47.0430585,28.8914307
266614,str. Igor Vieru,47.0518562,28.8979044
266630,str. Ion Dumeniuc,47.055484,28.8978402
267486,str. Nicolae Sulac,47.06099039540271,28.897492289543155
266613,str. Igor Vieru,47.0517359,28.8976547
265918,Centrul civic,47.0474521,28.8977268
266526,str. Alecu Russo,47.0372194,28.887358
266658,str. Mihail Sadoveanu,47.0384098,28.8847033
266680,str. Nicolae Dimo,47.0436294,28.8661533
267765,str. Albisoara,47.01645822417009,28.856508135795593
267767,str. Titu Maiorescu,47.02634691036358,28.852522373199466
266561,str. Columna,47.0274523,28.8335423
267763,str. Butucului,46.98687632092567,28.86817574501038
266714,str. Nicolae Zelinschi,46.9932625,28.8651937
267764,bd. Dimitre Cantemir,47.01407354796133,28.856089711189274
266097,Grădina Zoologică,46.9746272,28.8674391
266743,str. Valea Crucii 10,46.9743801,28.8603004
267766,str. Titu Maiorescu,47.02763406022371,28.852608203887943
265751,bd. Renasterii Nationale,47.0331565,28.8464412
266096,Grădina Zoologică,46.974452,28.8677456
267770,str. Butucului,46.98615540976543,28.8666844367981
266548,"Uzina ,,Giuvaer""",46.9907753,28.8676891
266633,str. Ismail,47.0212032,28.8560837
267762,bd.Cuza-Voda,46.98330094524749,28.86267721652985
266636,str. Ismail,47.0205363,28.855782
265750,Albișoara 8,47.0166981,28.8561012
266642,str. Liviu Deleanu,47.0381887,28.7698943
266686,str. Onisifor Ghibu,47.034988,28.7764833
266514,str. 31 August 1989,47.0225088,28.8295459
266692,str. Paris,47.0318639,28.7827047
266678,str. Nicolae Costin,47.0426465,28.7700395
266285,str. Ion Pelivan,47.0287199,28.7891559
265829,str. Puskin,47.0243474,28.8349551
265822,bd. Grigore Vieru,47.0287792,28.8388897
266643,str. Liviu Deleanu,47.0394678,28.7677732
266919,șos. Balcani,47.0416839,28.7633017
266312,Piața Unirii Principatelor,47.0279938,28.7910786
266584,str. Eugen Doga,47.0294757,28.8390869
266693,str. Paris,47.0326835,28.7816851
266632,str. Ion Pelivan,47.0296173,28.7879603
266687,str. Onisifor Ghibu,47.0356865,28.775585
266422,str. Valea Crucii (str. Grenoblea),46.9726996,28.8542941
272204,str. Nichita Stanescu,46.9745280022977,28.86364817619324
266421,str. Valea Crucii,46.9725233,28.8543609
266742,Statia Deservirii Tehnice,46.974062,28.859455
266640,str. Kiev,47.03882949203677,28.858096003532413
266527,str. Alecu Russo,47.04209773492255,28.868079185485843
276211,str. Vasile Lupu,47.0191975443937,28.759911060333256
266579,str. Dokuceaev,47.0028774,28.816803
266554,str. Caucaz,47.0061544,28.7664828
319700,str. N. Dimo,47.05897315827545,28.87340605258942
266627,Piata Unirii Principatelor (str. Ion Creangă),47.0261257,28.790841
266531,str. Anton Crihan,47.0128935,28.8279157
266553,Policlinica (Str. Cartușa),47.0158647,28.7480661
266540,str. București,47.0221766,28.8259731
266283,Piaţa Pan Halippa,47.0084584,28.8273085
265957,Cişmelelor,47.0215271,28.7673759
266596,str. Gheorghe Tudor,47.004913,28.8213058
266456,Spitalul Clinic Municipal nr.1,47.0053984,28.8417466
265721,bd. Decebal,46.9872003,28.85643
266648,str. Matei Basarab,47.053344955562025,28.872515559196476
266665,str. Miron Costin,47.04798299180487,28.870219588279728
266793,Telecentru,46.999051,28.8087899
265961,Clinica Veterinară Republicană,47.0247505,28.7824549
266759,str. Ștefan Neaga,47.0325536,28.8052341
266682,Str. Nicolae Dimo 27,47.0093187,28.7623952
266861,Uzina chimică,47.0266486,28.7736304
266864,Uzina Mecanică Experimentală,47.0255663,28.7792937
266555,str. Caucaz,47.0060227,28.7664989
265974,"Complexul Memorial ""Eternitate""",47.0083224,28.8328181
265744,str. Ion Inculet,47.0092827,28.8362401
266543,str. București,47.0122535,28.8406029
266209,N. Dimo,47.0091759,28.7623466
266727,str. Teilor,46.9897664,28.8529137
265746,"institutul ""N. Dimo""",47.0013201,28.7773954
265958,str. Cişmelelor,47.0216953,28.7676093
266095,Grădina Publică,47.0244375,28.8291614
266855,Universitatea Pedagogică de Stat „Ion Creangă“,47.0371529,28.8121895
266850,Universitatea de Stat,47.0183652,28.8230148
266063,Gara Auto Sud-Vest,46.9933548,28.789366
266717,str. Sfânta Vineri,46.9974728,28.7838359
266863,Uzina Experimentală,47.0256747,28.7778274
266623,str. Ion Creangă,47.0281582,28.796342
266807,Testemiţanu,47.0186563,28.7553515
266062,Gara Auto de Sud-Vest,46.9916761,28.7893361
265891,Oraselul Academiei(Campusul Academic),46.993722,28.8150109
265823,bd. Mircea cel Bătrân,47.0373205,28.8899577
281746,str. Nucarilor,47.13005659543952,28.865037560462955
281625,Str. Svinta Vineri,46.99742173714037,28.783637881278995
265965,Colegiul de Construcții,46.9931771,28.8201395
266856,Universitatea Pedagogică de Stat „Ion Creangă“,47.0371021,28.8116957
266591,str. Gh. Asachi,47.001116,28.8219818
266730,str. Teilor,46.9883064,28.8537911
265876,str. Ismail (Bd. Ștefan cel Mare și Sfânt),47.0152582,28.8448887
281747,str. Miorita 40,47.14224489382058,28.855821490287784
319704,Piața Eroilor,47.03820433552144,28.862516283988956
266114,Hristo Botev,46.99315,28.8472483
266599,str. Ginta Latină,47.0378918,28.8893437
266760,str. Ștefan Neaga,47.032428,28.8054233
265960,Clinica Veterinară Republicană,47.0249867,28.7820573
266341,Policlinica,47.0158192,28.7476767
266592,str. Gh. Tudor,47.003521,28.824314
281624,Uzina Chimica,47.02681496844931,28.773702979087833
266364,Primăria Durleşti,47.0189982,28.7657478
265745,"Institutul ""N. Dimo""",47.0016281,28.7762476
266284,Piaţa Pan Halippa,47.007384,28.8281823
266700,str. Mircea cel Batrin(Petru Zadnipru),47.0430106,28.8898419
266360,Pretura sectorului Ciocana,47.0406309,28.890406
265877,str. Aron Pumnul,47.1250609,28.8652815
266305,Piața Ovidiu,47.0106495,28.8428603
266895,str. Trandafirilor (Zelinschi),46.9924852,28.8490534
266477,or. Cricova (str. Minerilor),47.1454336,28.8549027
266457,Spitalul Clinic Municipal nr.1,47.0049971,28.8420937
266626,Piata Unirii Principatelor (str. Ion Creangă),47.0264621,28.7912111
281750,str. Stefan cel Mare (La Cerinta),47.14575854602319,28.85741472244263
268893,str. Luceafarul,47.14127796020417,28.8644152879715
281744,str. Alba Iulia,47.12183338996966,28.866620063781742
281745,str. Alba Iulia,47.121793238045115,28.86636257171631
265878,str. Aron Pumnul,47.1252947,28.8653924
266662,str. Miorița,46.996991,28.8090044
266736,str. V. Korolenko,46.9980181,28.8203898
265806,Baza de Transport Auto nr. 31,47.0477052,28.8265211
284104,sat. Colonita scoala,47.04569476410292,28.958689570426944
284061,str. Mircesti,47.063215845640144,28.804398179054264
284103,sat. Colonita scoala,47.045899465786476,28.958995342254642
266443,str. Ceucari,47.0617089,28.8448835
284065,str.Tolbuhin,47.058121656653654,28.79271984100342
284075,Interautoservis,47.059166845587185,28.755635619163517
284845,Magazinul de peste,47.093840148210425,28.82471859455109
284058,sos. Balcani 7,47.06447287335438,28.795895576477054
266852,Universitatea de Stat de Medicină și Farmacie,47.0340215,28.8192612
284101,sat. Colonita str. Budesti,47.044217964396324,28.96254658699036
265805,Baza de Transport Auto nr. 31,47.0483084,28.8259733
266562,str. Columna,47.0362593,28.8226288
284837,str. Veronica Micle,47.10551461203828,28.814429640769962
284838,Hulboaca Magazin,47.11733253557432,28.798223733901978
284842,str. Veronica Micle,47.10513122488611,28.814386725425724
267864,str. Ceucari,47.06173587676538,28.846508860588077
284843,Magazin Frunze,47.10068373213168,28.817825317382816
266572,str. Cucorilor,47.0611636,28.8420874
266666,str. Moldovița,47.0545624,28.8413066
284060,str. Mircesti,47.063610497068076,28.80426943302155
284070,str. Petricani 204,47.05417460458868,28.811098337173465
266193,Mihai Viteazul,47.0443288,28.8322389
284102,sat. Colonita str. Stefan cel Mare,47.04372447023248,28.962906002998356
284071,str Petricani 21,47.05221924373453,28.817085027694706
284074,Interautoservis,47.05956883587541,28.75507235527039
284077,cotitura spre Truseni,47.064005145574455,28.74353349208832
284834,Magazinul de peste,47.09354432779437,28.825330138206485
284844,Liceul Teoretic,47.09847445352882,28.82022321224213
267863,str. Socoleni,47.06032530029071,28.83796870708466
266115,Hulboaca Vitim,47.1078131,28.8123446
284836,Primaria Gratiesti,47.100110424012925,28.818570971488956
284840,Hulboaca Magazin,47.11717921509378,28.798127174377445
285441,Ștefan-cel-Mare,47.09034863212626,28.829090595245365
266787,Teatrul M. Eminescu,47.0222,28.8357781
266851,Universitatea de Stat de Medicină și Farmacie,47.0343895,28.8179857
266032,Fabrica de Asfalt,47.0660941,28.7790911
267862,str. Doina 150,47.064933288879665,28.833773732185367
284841,Hulboaca Vitim,47.107566599188246,28.812391161918644
266928,Ștefan-cel-Mare,47.0905752,28.8290343
285444,Magazinul 3,47.102706693620135,28.831574320793155
266649,str. Melestiu,47.0058562,28.8475308
284835,Liceul Teoretic,47.09866799730146,28.820282220840458
267860,Magazin Alimentar,47.061388717623736,28.83661150932312
285442,str. 31 august,47.098653390248835,28.83123099803925
266746,str. Valea Trandafirilor,47.007624,28.8492199
266103,Centrul de Sanatate Gratiesti,47.0929442,28.8308459
285449,Magazin Frunze,47.09585971776326,28.83091986179352
266264,Parcul „La Izvor“,47.0446114,28.7884948
266597,str. Ghidighici,47.0461749,28.7832239
266751,str. Vasile Badiu,47.0517999,28.8459872
266431,Scoala Primara Gratiesti,47.0939231,28.8307847
285443,str. Catalan,47.09888345086236,28.8314563035965
266749,str. Vasile Badiu,47.0510337,28.8500667
266082,Ghidighici-Vin (Vile-2),47.0804809,28.7693391
266586,str. Florilor,47.0436246,28.852523
265950,Piata Marii Adunari Nationale,47.0263308,28.8296621
265826,bd. Renașterii Naționale,47.0466317,28.8485801
266056,Magazin Frunze,47.095901,28.8310939
266598,str. Ghidighici,47.0452826,28.7850345
285476,Primaria Ghidicgici,47.08939536463138,28.76182079315186
285445,str. Griului,47.10280528364161,28.831858634948734
266716,str. Serghei Lazo,47.0289503,28.8257194
285471,"s.a.""Drumuri-Chisinau""",47.05790603820552,28.782640099525455
265774,"Asociaţia ""Efes-Vitanta""",46.9985099,28.896488
266732,str. Toma Ciorbă,47.0316075,28.8217696
266281,Piaţa Dimitrie Cantemir,47.0381774,28.8099481
266377,"Restaurantul ""Butoiaş""",47.0484841,28.7782375
266083,Ghidighici-Vin (Vile-2),47.0807893,28.7695129
285472,str. V.Costin,47.09267146538426,28.760426044464115
266788,Teatrul Național de Operă și Balet „Maria Bieșu”,47.0268063,28.8293435
266257,Parcul Alunelul,47.0381188,28.8052532
266041,Feroviarilor (Vile-1),47.073245,28.7706533
266557,str. Ciuflea,47.0135272,28.8471549
266843,"magazinul""UNIC""",47.0163961,28.8448429
266844,"magazinul ""UNIC""",47.0168053,28.8438959
266857,Universitatea Tehnică,47.0312278,28.8227457
266031,Fabrica de Asfalt,47.0666086,28.7786339
285477,Primaria Ghidighici,47.08921639680099,28.76182615756989
266650,str. Melestiu,47.0057995,28.8476247
266745,str. Valea Trandafirilor,47.0076555,28.849358
266558,str. Ciuflea,47.0124314,28.8459592
266533,str. Armenească,47.0195775,28.8397255
266854,Universitatea de Stat de Medicină și Farmacie,47.0333988,28.8190197
265787,"Asociația ""Zorile""",47.0390804,28.8035038
265799,Bariera Sculeni,47.0424249,28.7948039
265804,"s.a.""Drumuri-Chisinau""",47.0576446,28.7826813
285473,str. V.Costin,47.092664161035934,28.76019537448883
266302,Piața Mării Adunări Naționale,47.0231458,28.834813
265798,Bariera Sculeni,47.0428973,28.7941984
266265,Parcul „La Izvor“,47.0442382,28.7887317
266042,Feroviarilor (Vile-1),47.0729065,28.7711303
266297,Piața Dmitrie Cantemir,47.0379329,28.810016
266906,Şcoala Medie pe Schimburi nr. 3,47.0024468,28.8904762
286716,Şcoala Medie pe Schimburi nr. 3,47.00287292330748,28.889322280883793
265923,"str. Negresteni (Centrul ""Progres"")",47.0148863,28.8737847
286722,scoala Bubueci,46.98122587344814,28.93408298492432
265779,"Asociaţia ""Tutun-CTC""",47.0223274,28.8671697
266138,Keramin,47.0116154,28.8765952
286717,"Asociația ""Beton Armat""",47.00563488922596,28.88585150241852
265956,Circul,47.036029,28.8494001
265924,"str. Negresteni (Centrul ""Progres"")",47.0147515,28.8736119
266638,str. Kiev,47.0402243,28.8599565
266587,str. Florilor,47.0602101,28.8630883
266907,"Asociaţia ""Efes-Vitanta""",46.9989681,28.8953611
266621,"Asociatia ""MACON""",46.9949938,28.905795
286720,str. Grigore Vieru,46.984062150688786,28.931207656860355
265858,str. Grigore Vieru,46.9842823,28.9312775
266646,str. Matei Basarab,47.0549227,28.8651157
266647,str. Matei Basarab,47.0554695,28.8658568
266137,Keramin,47.0121854,28.8763751
265783,"Asociația ""Agromașina""",47.0086455,28.8802687
286718,str. Uzinelor 188,46.99059416522705,28.912947177886966
286719,str. Uzinelor 188,46.99072223596437,28.913161754608158
266524,bd. Moscova,47.0454792,28.8620731
266523,str. Bogdan Voevod,47.0432207,28.8607499
286865,sat. Goian,47.132936059267244,28.906928300857544
286868,cotitura Spre Fauresti,47.13592119430214,28.90935838222504
265955,Circ,47.0366359,28.8497218
266664,str. Miron Costin,47.0491288,28.8630222
286866,sat. Goian,47.13338493501928,28.90688002109528
286870,sat. Fauresti Penitenciar 10,47.137723871957895,28.899541497230533
265768,"Asociatia ""Vitanta""",46.9967548,28.8997748
266639,str. Kiev,47.039707,28.8593514
266725,bd. Moscovei,47.0586327,28.8666919
266455,Romplaneta,46.9622134,28.834489
266772,Strada Vasile Alecsandri,47.024203,28.8426309
266568,str. Constantin Tanase,47.0279511,28.8401882
286867,cotitura Spre Fauresti,47.13562925694814,28.910039663314823
286869,sat. Fauresti Penitenciar 10,47.13758885570821,28.899772167205814
266091,str. Romana (Grigore Ureche),47.0287727,28.8496812
266712,str. Romană,47.032016,28.8427908
286933,str. Valea Apelor,46.956981459489775,28.83744299411774
266454,Romplaneta,46.9621747,28.8347935
265885,Centru Comercial,47.0627795,29.0006511
265943,Primatia Budesti,47.064068,29.0088939
287306,or. Vadul lui Voda Centru,47.08757278656485,29.07989323139191
287313,or. Vadul lui Voda str. TatarBunar,47.09638924864263,29.070956110954288
266903,Şcoala,47.0656234,28.9888929
287311,or. Vadul lui Voda str. Vasile Alexandri,47.09355893624853,29.07356858253479
266691,str. Pandurilor,46.9995011,28.8726092
266920,str. Liviu Deleanu (șos. Balcani),47.0469563,28.7670412
266601,Bd. Cuza-Voda,46.9746195,28.8495027
266231,Coperativul de garaje nr. 13,46.9632946,28.86096
266770,bd. Traian,46.9814212,28.8499512
265875,str. Grenoble,46.9775585,28.8452958
265987,Bd. Cuza-Voda (str. Grenoblea),46.9737949,28.8484686
291465,str. Puhoi,46.956955829201114,28.86493563652039
266230,Coperativul de garaje nr. 13,46.9630693,28.8610529
265870,Hotel Cosmos (Bd. Constantin Negruzzi),47.0136719,28.8538448
266577,str. Dimineții,47.0055724,28.8672402
266068,Gara Feroviara,47.0111314,28.8586766
266604,str. Grădina Botanică,46.981586,28.8980953
266694,str. Paul Gore,46.9858479,28.8912688
266446,sos. Muncești 426,46.9788395,28.9037741
266420,s. Bîc,46.9690679,28.9136166
266766,Strada Băcioii Noi,46.9565782,28.9257141
266576,str. Dimineții,47.0049378,28.8674495
266731,str. Tighina,47.0197718,28.8470755
266733,str. Tomiș,46.9931871,28.8799737
266704,Str. Podul Înalt,47.0248995,28.8759434
266703,Str. Podul Înalt,47.0247157,28.8757306
266546,Str. Burebista,46.9791746,28.8675759
266869,Valea Crucii,46.9773366,28.8705331
281631,Revaca,46.95198698280198,28.929512500762943
281630,Revaca,46.951639109657684,28.929517865180973
266560,Ciocana Veche (str. Colonița),47.0374875,28.9038938
266765,Strada Alexandru Hâjdeu,47.0204126,28.8529655
266756,str. Zelinski,46.9937651,28.8593968
266676,str. N. Titulescu,47.000739,28.8601763
281627,Rascrucea Spre Bacioi,46.95006815961384,28.91437947750092
265819,bd. Decebal,46.9875061,28.8578964
266805,str. Vadul lui Voda (Termocentrala Nr. 1),47.0241899,28.86703
266559,Ciocana Veche (str. Colonița),47.0375604,28.9031936
287292,str. Andrei Izbas,47.040134619750056,28.904240727424625
287291,str. Andrei Izbas,47.04012365242329,28.904503583908085
291756,sat. Cruzesti str. Buna Vestire,47.07815574857011,28.977094888687137
266184,Metro 2  (Institutul de Protectie a Plantelor),46.9649733,28.8901487
265811,Bd. Dacia (Cuza-Voda ),46.983496,28.8615119
281626,str. Ismail 88,47.017943106780365,28.849309086799625
291993,Serghei Lazo,46.88316388526816,28.990423625461464
266519,str. Aeroport,46.9385447,28.9331728
266675,str. N. Titulescu,46.9999508,28.8598097
266067,Gara Feroviara,47.0110807,28.8582041
265820,bd. Dimitrie Cantemir,47.0189164,28.8516557
266755,str. Zelinski,46.9924216,28.8588139
265903,Cartierul „Galata“,46.9421236,28.9264238
266534,str. Bacioii Noi,46.9495358,28.9140064
291967,Unitatea militara,46.93432681892468,28.948153853416446
291970,"or. Sîngera, str. Tineretului",46.91387594434268,28.99104773998261
291985,Ville,46.89626993936806,29.01990658864194
266109,Hotel Cosmos,47.0145921,28.8548825
266868,Valea Crucii,46.9767065,28.8703912
291984,Ville,46.89614555444387,29.020046110114958
266520,str. Aeroport,46.9379672,28.9325745
265816,Bd. Traian,46.9854249,28.8580556
291983,Directia Fabrica de Mucava,46.903761961173466,29.01930021004209
265902,Cartierul „Galata“,46.9417627,28.9263316
265812,bd. Dacia (bd. Cuza Voda),46.9824187,28.8623498
266183,Metro 2 (Institutul de Protectie a Plantelor),46.9642484,28.890468
291980,Fabrica de Mucava,46.90699069983021,29.01700436858151
291981,Fabrica de Mucava,46.90703116800501,29.01727782444486
266292,Piața Decebal,46.9969099,28.859467
291982,Directia Fabrica de Mucava,46.90366660179247,29.019026849976306
291971,"or. Sîngera, str. Tineretului",46.914451254793576,28.990441560745243
291992,Serghei Lazo,46.883304900364976,28.990311534522576
291968,Unitatea militara,46.93470044554077,28.947976827621464
266535,str. Bacioii Noi,46.9503228,28.9133935
292982,sat. Bacioi str-la. Gagarin,46.908852807954524,28.897495752381655
292985,"sat.Bacioi, brigada de tractoare",46.92028962408705,28.87498582464623
266536,str. Bacioii Noi,46.9496669,28.9130241
294469,Piata Dimitrie Cantemir,47.03432906827403,28.818120981316714
265857,sat. Brăila,46.9158731,28.8439104
291472,sat. Bacioi str-la. Gagarin,46.9092292615872,28.897261619567875
285475,sat. Ghidighici,47.09591814901531,28.765463232994083
291471,sat. Bacioi (Hamzeu),46.90826909237372,28.91685247421265
285474,sat. Ghidighici,47.096020403552146,28.765141367912296
265759,Alimentară,47.06200645830123,28.83587665080305
266705,str. Putnei,47.046323435670715,28.847136505946924
286922,sat. Bic,46.944359010897486,28.950084924771108
267865,str-la. Studentilor,47.06226572519461,28.85013030155874
266663,str. Miron Costin,47.050022623248424,28.863701817838727
266177,str. Bucovinei (Megapolis Mall),47.06860552443798,28.888050896912013
284839,sat. Hulboaca,47.12138800762767,28.79334208730183
266585,str. Florilor,47.059959797089306,28.863417262876254
266721,str. Socoleni,47.062583567886264,28.85540304033338
265954,Ciorescu (str.C.Negruzzi),47.13170255107754,28.894064407833508
286860,str.Alexandru cel Bun,47.131815574778514,28.89414477355651
266904,Şcoala (str.Moldova),47.1271464,28.8917131
286861,str. Ion Creanga,47.130666076708856,28.899439573287967
266905,Şcoala(str.Moldova),47.1272828,28.8919121
266162,Cotitura Spre Cricova,47.1176703,28.8675082
266163,or. Cricova (Livada),47.117638,28.8681128
265752,Ciorescu(Albisoara),47.12147564258983,28.884252864443766
266058,Făureşti la Pod,47.141880475683806,28.89712758685131
286871,sat. Fauresti Centru,47.147028312227725,28.894659818522825
284098,sat. Colonita Primaria,47.03817886466203,28.951850180780678
284073,"Restaurantul ""Butoiaş""",47.04766508012352,28.7790834396755
268894,Cotitura spre Orhei,47.115514564297335,28.860059380531315
266777,Stăuceni,47.09158318182829,28.862559201023085
286863,sat. Ciorescu (str. Basistii),47.130067549126714,28.90257774093667
265749,Albișoara,47.0341108,28.8450612
266415,Cotitura spre Orhei,47.115032742749634,28.86118590493783
266484,Stauceni,47.0917123,28.8630958
266924,Arena Sportiva (Ștefan cel Mare),47.087371880366504,28.771337296929744
285478,Arena Sportiva,47.08748487907211,28.77112274133194
266776,str. Studenţilor,47.0617921,28.8554138
266057,Făureşti la Pod,47.14201908366221,28.8973689873525
266908,Şcoala rusă (str.Viilor),47.1291669,28.8925231
265953,Ciorescu(Albisoara),47.1214727,28.8838917
266064,Gara de Nord,47.0232259,28.8639933
284087,str. Maria Dragan,47.031071235651275,28.8831854643919
284092,Asociatia Medicala Teritoriala Ciocana,47.031937877287795,28.885599561502108
285470,str. Melestiu 20,47.0060775659871,28.845532513693385
266418,Răscruce Ciorescu (Alexandru Cel Bun),47.12411084051255,28.890556064923047
286859,Post Vamal,47.1190555353573,28.872612118721012
266249,Otovasca,47.02063114520512,28.873336510335385
265887,Fabrica de Piele (Calea Basarabiei),47.0224474,28.8594908
265969,sat. Coloniţa,47.04762853116981,28.954692937045422
266147,La Hanul lui Vasile,47.04886385449523,28.926261731876746
287295,sat. Tohatin str. Vadul lui Voda,47.06092463426055,28.95106673409651
291755,sat. Cruzesti str. Buna Vestire,47.076990091781475,28.977588334031967
266248,Otovasca,47.0200201,28.8733649
266909,Şcoala rusă (str.Viilor),47.129322,28.892796
266417,Răscruce Ciorescu (Alexandru Cel Bun),47.12387006763567,28.89032005334305
266518,str. A. Pușkin,47.0315112,28.8493553
266809,Tohatin,47.059620057428475,28.94792316738737
287296,sat. Tohatin str. Vadul lui Voda,47.06108173456435,28.950975608274778
266141,str. 31 august 1989,47.0619144,28.9557504
268892,Magazin Materiale de Constructie,47.102418225471574,28.863841295242313
286864,sat. Ciorescu (str. Basistii),47.12996910802367,28.902540144383877
286862,str. Ion Creanga,47.13089599896614,28.899069428443912
286858,Post Vamal,47.1189496746912,28.872987627983097
265929,"Asociaţia ""Tutun-CTC""",47.0230891,28.8671806
284096,Intovarasirile Pomilegumicole,47.04275903788582,28.916916379979092
284099,sat. Colonita Centru,47.04025505085192,28.959772887986123
266146,La Hanul lui Vasile,47.0488221,28.9268761
265821,bd. Dimitrie Cantemir,47.0191626,28.8502343
265888,Fabrica De Piele (Calea Basarabiei),47.022765,28.8603874
265864,Budeşti,47.02722089211793,28.878641757539008
284095,Intovarasirile Pomilegumicole,47.0427260462378,28.917302497251324
284094,sat. Colonita Brigada De tractoare,47.035915575162406,28.9457719402796
265970,sat. Coloniţa,47.04762853116981,28.954692937045422
284097,sat. Colonita Primaria,47.038218944543374,28.9523970734356
266142,str. 31 august 1989,47.0617864,28.9558204
284093,sat. Colonita Brigada De tractoare,47.03622978031922,28.946871459244715
284100,sat. Colonita Centru,47.04036465680687,28.95940269413575
266812,Tohatin de jos (Poiana Nucului),47.051608821824615,28.93513981498822
291760,sat. Cruzesti Cotitura,47.0672342383482,28.97593627747497
291759,sat. Cruzesti Cotitura,47.06735579811152,28.975812797002718
287293,Intovarasirile Pomilegumicole,47.04744189515662,28.91418114443251
265942,Primatia Budesti,47.063931989673094,29.008278300545523
287294,Intovarasirile Pomilegumicole,47.04729914512124,28.91344646503899
266811,Tohatin de jos (Poiana Nucului),47.0516785,28.9357493
266810,Tohatin,47.05944825509148,28.947992927635028
265865,Budeşti,47.027140423624836,28.878834867293797
284086,str. Maria Dragan,47.03057784022198,28.882279185301762
284088,Asociatia Medicala Teritoriala Ciocana,47.03189404992029,28.886023428260604
266738,Mester Manole (str. Vadul lui Voda),47.03363057857056,28.890287858385467
266740,Mester Manole (str. Vadul lui Vodă),47.03373672207508,28.891269685454517
267487,Centru Civic,47.04769048804085,28.898012640626856
287314,"or. Vadul lui Voda (Tabara""Ciresari"")",47.10338964026521,29.0650823816135
291725,sat. Cruzesti,47.085841442868414,28.973329104407448
291758,sat. Cruzesti str. Stefan Cel Mare,47.08002230388402,28.97437513973021
265962,or. Codru,46.947863566634446,28.83646670890339
266532,str. Armenească,47.02034950427293,28.839020165126097
266713,str. Romană,47.03251904542826,28.844464978451658
266578,Str. Doina şi Ion Aldea-Teodorovici,47.0282921,28.7962046
266458,Spitalul Clinic Republican,46.99520466095458,28.832142998110633
266594,str. Gheorghe Cașu,47.00151935540775,28.837689768331284
284083,or. Vatra (Baza Auto),47.0788898821471,28.72754247710287
266276,mag. Pegas,47.04948904518386,28.82296966330822
284067,str. Pescarusilor,47.0556949742127,28.803792039528936
284059,sos. Balcani 7,47.06453849395765,28.796469459364502
284079,"or. Vatra, str. Iu. Gagarin",47.07085987016687,28.739499449729923
284078,"or. Vatra, str. Iu. Gagarin",47.07044367866001,28.740041128365505
284068,str. Streșeni,47.05630870017184,28.800413001999146
266659,str. Padurilor,46.997121620508985,28.861330798300582
266671,str. Muncești,47.00940629924798,28.861346868741357
268898,Policlinica Oncologic,46.99008151860427,28.826687548047097
284069,str. Petricani 198,47.05290995247091,28.81598541071695
266521,str. Albișoara,47.038091074082125,28.825029781493026
284833,Str. Luceafarul,47.08828502146219,28.83206785823607
284072,str. Petrecani 86,47.04491648926121,28.831702804895553
266016,Dispensarul Dermato-Venerologic,46.95183328772064,28.833022669724507
302444,Creatol Mall,47.057036258627754,28.759567744338817
285446,sat. Gratiesti (str. Prieteniei),47.10625175846724,28.831901540998686
294470,Piata Dimitrie Cantemir,47.03349160304519,28.818973336638635
266198,mag. Pegas,47.050950635887446,28.820228907875297
284066,str. Straseni,47.057010580180965,28.797612399790843
266522,str. Albișoara,47.03836150036204,28.825904095448337
266573,str. Cucorilor,47.0611292847009,28.840474027184275
267768,str. Sarmisegetusa,46.99208319573665,28.866035452903198
266690,str. Pandurilor,46.99923278650778,28.873202183580865
265781,Asociaţia de producţie,46.9125238,28.9719526
266176,Mateevici,46.910079682036255,28.967375090457576
291687,str. Muncesti 801,46.92875874087943,28.96280944347382
284063,str. Perrecani,47.05872467832012,28.78902370628469
302413,Campusul Universitar,47.056491657081494,28.81754639214843
284846,Str. Luceafarul,47.08771521047198,28.83238437157389
266619,Str. Independenței,46.97924214671108,28.866598667790004
266459,Spitalul Clinic Republican,46.99524838566522,28.83245942948961
302414,str. Mircești 21,47.05871730604904,28.813700093436896
266848,Universitatea Agrară,47.0607336,28.8098276
302416,Universitatea Agrară,47.0600605802232,28.809781379660542
265963,or. Codru,46.94792576731079,28.836305777207457
266465,Institutul oncologic,46.99157454045437,28.82855934042375
284081,Or. Vatra Primaria,47.07406019264871,28.736044887034538
302445,Creator Mall,47.05762261347792,28.759280786350292
284062,sos. Balcani,47.05901718118748,28.78834242772972
284064,str. Tolbuhin,47.058022875625575,28.79228554029171
284082,or. Vatra (Baza Auto),47.07890821098261,28.728717086091304
302443,"or. Vatra, str. Mărțișorului",47.07549305792259,28.734127971467938
266667,str. Moldovița,47.05536597274089,28.84096207684844
268661,Str-la. Studentilor,47.06225842498615,28.84879410942824
266145,La fîntînă,46.963886534558725,28.91933080830444
281628,str. Bacioii Noi,46.953587591947326,28.9229470867969
281629,str. Bacioii Noi,46.952983727251684,28.920892856045874
291753,or. Singera str. Miorita,46.91808976356694,28.98034036328505
266365,Primăria Sângera,46.917106,28.9737676
265782,Asociaţia de producţie,46.912632,28.9716822
266001,Dealul Leului,46.909269577319165,28.961162489404497
291688,str. Viilor,46.92358211434511,28.967959309285575
281637,Cartierul Codru,46.939235039194315,28.946721553802494
266018,sat. Dobrogea,46.88345262416668,28.983736079609894
266144,La fîntînă,46.96349489304747,28.92034471288485
266366,Primăria Sângera,46.9170474,28.9734511
281636,str. Muncesti 810,46.9365026079005,28.9513510465622
266922,Cartierul Codru,46.9386812,28.9481175
281635,Scoala Profesionala Nr.4,46.941857456054514,28.94260168075562
291990,Biserica,46.88681472117475,28.991122775929984
267861,str. Doina 150,47.065386186744156,28.83368796740193
285448,sat. Gratiesti (str. Prieteniei),47.1063830839056,28.832159024614715
265770,"Asociaţia ""Carmez""",46.9912235153238,28.883233690078224
291690,or. Singera Centru,46.91960316544443,28.97202548661102
266784,sat. Sângera,46.90593822471759,28.953051540884594
291689,str. Viilor,46.92334762627632,28.968608379364017
281638,str. Muncesti 810,46.936729705358275,28.951458334922794
291978,Baza petroliera,46.910962747235565,29.014120061371756
291979,Baza petroliera,46.91138771663479,29.01408792218001
291986,Marketul,46.892951748141066,29.01401817629626
291988,Cartier Locativ,46.89045524025221,28.99505494842176
266574,str. Căuşeni,46.99652907489231,28.876292069777413
266260,Parcul de Troleibuze nr. 2,46.98863646458358,28.886484419252387
291976,baza cu aprovizionare cu produse de metal,46.91410025413414,29.004695590032505
291989,Cartier Locativ,46.890289447743406,28.995043668687053
266695,str. Paul Gore,46.985284434886715,28.892192268187962
291683,str. Gradina Botanica,46.98000319792573,28.901918177759438
291752,or. Singera str. Chisinau,46.91854420882545,28.97427320480347
281634,Scoala Profesionala Nr.4,46.94130441514197,28.943030834198
281632,Autoservice,46.94572498852489,28.935493771100326
266023,Drumul spre Aerogara,46.94898427721718,28.93181916164868
291977,baza cu aprovizionare cu produse de metal,46.913814554447114,29.003917913335904
281633,Autoservice,46.94603987188219,28.93533289432526
266022,Drumul spre Aerogara,46.948738981316104,28.931679695229267
266800,sat. Singera (REVACA),46.908620886474935,28.943352733077234
291685,"Zona Libera""Expo-Business""",46.9308944603023,28.95932793617249
265771,"Asociaţia ""Carmez""",46.99047710095096,28.883673532644632
291682,str. Albita,46.98244111504864,28.89729904206374
291969,"or Sîngera, str. Miorița",46.917426854597494,28.981241392868508
266175,Mateevici,46.910024680130604,28.967718368429825
266785,sat. Sângera,46.9060079,28.9528316
291686,str. Muncesti 801,46.92852802670105,28.96361403773843
291684,"Zona Libera""Expo-Business""",46.93131573280816,28.959692716598514
291987,Marketul,46.89277938344305,29.013610467851976
302706,str. Tineretului (TOC),46.90299884363012,28.98700834250047
267769,bd. Cuza-Voda,46.987933990874815,28.869339903991833
266575,str. Căușeni,46.997191340810446,28.875229910782856
284085,Asociatia Cerealiere,47.02026913260325,28.869146734246552
266261,Parcul de Troleibuze nr. 2,46.98823776726618,28.887203248733567
266419,s. Bîc,46.96890918705734,28.91424535353119
265785,"Asociația ""Beton Armat""",47.00547402346656,28.88659722580944
266767,Strada Băcioii Noi,46.957065736597485,28.925719839472197
266002,Dealul Leului,46.9093832,28.9605819
291991,Biserica,46.88696858456652,28.991412512804196
266017,sat. Dobrogea,46.88332796555768,28.98378435261269
291467,Rascrucea spre Chisinau,46.91382464247387,28.864758610725406
265772,"Asociaţia ""Cerealiere""",47.0189161727493,28.86980126253097
291470,sat. Bacioi Gradinita de copii,46.913817313631455,28.871018886566166
265753,str. Chisinau,46.91196308429817,28.8836145401001
265769,"Asociatia ""Vitanta""",46.99709605461987,28.89949312368033
266622,"Asociatia ""MACON""",46.994791025330336,28.90566224328165
265784,"Asociația ""Agromașina""",47.009033003168135,28.879279977110524
266774,sat. Străisteni,46.909218267380574,28.861121535301212
291466,Rascrucea spre Bacioi,46.91490563575249,28.86469960212708
291469,sat. Bacioi str. sf. Gheorghe,46.913340936725014,28.875777125358585
265881,"sat. Bacioi, str. Hlobeni",46.907876957252135,28.90315175056458
291473,sat. Bacioi Gradinita de copii,46.9140151920247,28.870793581008915
266021,str. Puhoi,46.95676177090294,28.864769339561466
265813,str. Independentei,46.97894942338513,28.854593038558964
265754,sat. Bacioi centru,46.91022239561612,28.89066338539124
265882,"sat. Bacioi, str. Hlobeni",46.90764973745773,28.90334486961365
291468,sat. Bacioi str. sf. Gheorghe,46.913150384776756,28.875997066497806
265756,str. Chisinau,46.91216463407247,28.88338923454285
266054,Frumuşica,46.89908064930391,28.89165580272675
266055,Frumuşica,46.899175950373206,28.89185965061188
291464,str. Nufarul,46.96532163565497,28.858299851417545
291463,str. Nufarul,46.96486768235148,28.858525156974796
266252,bd. Decebal,47.0082643,28.8598838
265755,sat Bacioi centru,46.91050823890027,28.890223503112797
266105,Centru Hidrotehnica,47.0075235,28.8600921
266858,str. Studentilor,47.0593991,28.86768
266442,str. Sihastrului,46.9964113,28.8014944
266724,Bd. Moscova (str. Studenților),47.058512691275745,28.86739790439606
266644,str. M. Lermontov,46.9999783,28.7800054
266645,str. M. Lermontov,47.000327,28.7797425
266430,str. Sihastrului,46.995716,28.8009761
266363,Primăria Durleşti,47.0188501083555,28.76580119132996
266758,str. Ştefan-Vodă,47.0265654,28.7718238
266806,Testemiţanu,47.01830517780513,28.7550562620163
265944,"str. Doina (Cimitirul ""Sf. Lazăr"")",47.068823,28.8323003
266804,sat. Hulboaca,47.12149757294035,28.793454766273502
265945,"str. Doina (Cimitirul ""Sf. Lazăr"")",47.06862012375026,28.832164406776428
